{
"type": "FeatureCollection",
"name": "Logistics Facilities in the Great Lakes Region",
"crs": { "type": "name", "properties": { "name": "urn:ogc:def:crs:OGC:1.3:CRS84" } },
"features": [
{ "type": "Feature", "properties": { "Name": "Woodhaven" }, "geometry": { "type": "Point", "coordinates": [ -83.232956940653693, 42.120125133540498 ] } },
{ "type": "Feature", "properties": { "Name": "Joliet" }, "geometry": { "type": "Point", "coordinates": [ -88.06044084777774, 41.52607462371854 ] } },
{ "type": "Feature", "properties": { "Name": "Effingham" }, "geometry": { "type": "Point", "coordinates": [ -88.539480172708707, 39.096889570748502 ] } },
{ "type": "Feature", "properties": { "Name": "Plainfield" }, "geometry": { "type": "Point", "coordinates": [ -86.400502948680995, 39.6927490193384 ] } },
{ "type": "Feature", "properties": { "Name": "Hilliard" }, "geometry": { "type": "Point", "coordinates": [ -83.1760673466474, 40.028924480080398 ] } },
{ "type": "Feature", "properties": { "Name": "Brecksville" }, "geometry": { "type": "Point", "coordinates": [ -81.636909729466694, 41.322076327225801 ] } },
{ "type": "Feature", "properties": { "Name": "Kinderhook" }, "geometry": { "type": "Point", "coordinates": [ -85.0001714570404, 41.7929559271128 ] } }
]
}
